{
  "description": "Master list of all sights on the Iceland Trip 2026 itinerary. Used to drive detail page generation (sights/<slug>.html), Google Maps linking, and loop research tasks. Update this file when adding/removing sights.",
  "updated": "2026-04-06",
  "sights": [
    { "slug": "hallgrimskirkja", "name": "Hallgrimskirkja", "emoji": "⛪", "lat": 64.1415, "lon": -21.9266, "days": [1], "priority": "star", "region": "reykjavik" },
    { "slug": "rainbow-street", "name": "Rainbow Street (Skolavordustigur)", "emoji": "🌈", "lat": 64.1425, "lon": -21.9275, "days": [1], "priority": "normal", "region": "reykjavik" },
    { "slug": "harpa", "name": "Harpa Concert Hall", "emoji": "🎵", "lat": 64.1504, "lon": -21.9326, "days": [1], "priority": "star", "region": "reykjavik" },
    { "slug": "sun-voyager", "name": "Sun Voyager Sculpture", "emoji": "⛵", "lat": 64.1475, "lon": -21.9225, "days": [1], "priority": "star", "region": "reykjavik" },
    { "slug": "laugavegur", "name": "Laugavegur Main Street", "emoji": "🛍️", "lat": 64.1446, "lon": -21.9306, "days": [1], "priority": "normal", "region": "reykjavik" },
    { "slug": "kronan-fiskislod", "name": "Kronan Fiskislod Grocery", "emoji": "🥘", "lat": 64.1548, "lon": -21.9516, "days": [1], "priority": "normal", "region": "reykjavik" },
    { "slug": "thingvellir", "name": "Thingvellir National Park", "emoji": "🏞️", "lat": 64.2559, "lon": -21.1295, "days": [2], "priority": "star", "region": "golden-circle" },
    { "slug": "bruarfoss", "name": "Bruarfoss", "emoji": "💧", "lat": 64.2647, "lon": -20.5175, "days": [2], "priority": "normal", "region": "golden-circle" },
    { "slug": "geysir", "name": "Geysir Geothermal Area", "emoji": "♨️", "lat": 64.3109, "lon": -20.3024, "days": [2], "priority": "star", "region": "golden-circle" },
    { "slug": "gullfoss", "name": "Gullfoss", "emoji": "💦", "lat": 64.3275, "lon": -20.1200, "days": [2], "priority": "star", "region": "golden-circle" },
    { "slug": "kerid", "name": "Kerid Crater Lake", "emoji": "🌋", "lat": 64.0411, "lon": -20.8851, "days": [2], "priority": "normal", "region": "golden-circle" },
    { "slug": "fridheimar", "name": "Fridheimar Tomato Farm", "emoji": "🍅", "lat": 64.1339, "lon": -20.4167, "days": [2], "priority": "normal", "region": "golden-circle" },
    { "slug": "seljalandsfoss", "name": "Seljalandsfoss", "emoji": "💧", "lat": 63.6156, "lon": -19.9886, "days": [3], "priority": "star", "region": "south-coast" },
    { "slug": "gljufrabui", "name": "Gljufrabui", "emoji": "🌊", "lat": 63.6194, "lon": -19.9872, "days": [3], "priority": "normal", "region": "south-coast" },
    { "slug": "skogafoss", "name": "Skogafoss", "emoji": "💦", "lat": 63.5321, "lon": -19.5117, "days": [3], "priority": "star", "region": "south-coast" },
    { "slug": "kvernufoss", "name": "Kvernufoss", "emoji": "🏞️", "lat": 63.5303, "lon": -19.4933, "days": [3], "priority": "normal", "region": "south-coast" },
    { "slug": "skogar-museum", "name": "Skogar Folk Museum", "emoji": "🌋", "lat": 63.5258, "lon": -19.5128, "days": [3], "priority": "normal", "region": "south-coast" },
    { "slug": "lava-centre", "name": "Lava Centre Hvolsvollur", "emoji": "🌋", "lat": 63.7497, "lon": -20.2267, "days": [3], "priority": "normal", "region": "south-coast" },
    { "slug": "reynisfjara", "name": "Reynisfjara Black Sand Beach", "emoji": "⚫", "lat": 63.4034, "lon": -19.0441, "days": [3, 5], "priority": "star", "region": "south-coast" },
    { "slug": "dyrholaey", "name": "Dyrholaey Viewpoint & Arch", "emoji": "🏔️", "lat": 63.4019, "lon": -19.1283, "days": [3, 5], "priority": "normal", "region": "south-coast" },
    { "slug": "vik-church", "name": "Vik Church Hilltop View", "emoji": "⛪", "lat": 63.4197, "lon": -19.0056, "days": [3], "priority": "normal", "region": "south-coast" },
    { "slug": "lava-show", "name": "Icelandic Lava Show (Vik)", "emoji": "🌋", "lat": 63.4187, "lon": -19.0064, "days": [3], "priority": "normal", "region": "south-coast" },
    { "slug": "eldhraun", "name": "Eldhraun Lava Field", "emoji": "🟢", "lat": 63.7536, "lon": -17.9772, "days": [4], "priority": "normal", "region": "south-coast" },
    { "slug": "fjadrargljufur", "name": "Fjadrargljufur Canyon", "emoji": "🏞️", "lat": 63.7715, "lon": -18.1728, "days": [4], "priority": "normal", "region": "south-coast" },
    { "slug": "hofskirkja", "name": "Hofskirkja Turf Church", "emoji": "⛪", "lat": 63.9297, "lon": -16.6397, "days": [4], "priority": "normal", "region": "south-coast" },
    { "slug": "dverghamrar", "name": "Dverghamrar (Dwarf Cliffs)", "emoji": "🗿", "lat": 63.7678, "lon": -17.9808, "days": [4], "priority": "normal", "region": "south-coast" },
    { "slug": "skaftafell", "name": "Skaftafell National Park (Svartifoss)", "emoji": "🏔️", "lat": 64.0164, "lon": -16.9664, "days": [4], "priority": "star", "region": "glaciers" },
    { "slug": "jokulsarlon", "name": "Jokulsarlon Glacier Lagoon", "emoji": "🧊", "lat": 64.0785, "lon": -16.2306, "days": [4], "priority": "star", "region": "glaciers" },
    { "slug": "diamond-beach", "name": "Diamond Beach", "emoji": "💎", "lat": 64.0456, "lon": -16.1783, "days": [4], "priority": "star", "region": "glaciers" },
    { "slug": "fjallsarlon", "name": "Fjallsarlon (Quieter Lagoon)", "emoji": "🧊", "lat": 64.0100, "lon": -16.3664, "days": [4], "priority": "normal", "region": "glaciers" },
    { "slug": "vestrahorn", "name": "Vestrahorn / Stokksnes", "emoji": "🏔️", "lat": 64.2486, "lon": -14.9822, "days": [4], "priority": "star", "region": "glaciers" },
    { "slug": "hraunfossar", "name": "Hraunfossar (Lava Falls)", "emoji": "💧", "lat": 64.7022, "lon": -20.9789, "days": [6], "priority": "star", "region": "west" },
    { "slug": "barnafoss", "name": "Barnafoss", "emoji": "💦", "lat": 64.7028, "lon": -20.9756, "days": [6], "priority": "normal", "region": "west" },
    { "slug": "deildartunguhver", "name": "Deildartunguhver", "emoji": "♨️", "lat": 64.6636, "lon": -21.4081, "days": [6], "priority": "star", "region": "west" },
    { "slug": "glymur", "name": "Glymur Waterfall Hike", "emoji": "🏔️", "lat": 64.3925, "lon": -21.2414, "days": [6], "priority": "normal", "region": "west" },
    { "slug": "ytri-tunga", "name": "Ytri-Tunga Seal Beach", "emoji": "🦭", "lat": 64.7961, "lon": -23.0789, "days": [7], "priority": "normal", "region": "snaefellsnes" },
    { "slug": "budakirkja", "name": "Budakirkja (Black Church)", "emoji": "⛪", "lat": 64.8214, "lon": -23.3819, "days": [7], "priority": "star", "region": "snaefellsnes" },
    { "slug": "arnarstapi", "name": "Arnarstapi & Gatklettur Arch", "emoji": "🪨", "lat": 64.7697, "lon": -23.6286, "days": [7], "priority": "star", "region": "snaefellsnes" },
    { "slug": "djupalonssandur", "name": "Djupalonssandur Pebble Beach", "emoji": "🌊", "lat": 64.7508, "lon": -23.9056, "days": [7], "priority": "normal", "region": "snaefellsnes" },
    { "slug": "londrangar", "name": "Londrangar Basalt Cliffs", "emoji": "🗿", "lat": 64.7383, "lon": -23.7817, "days": [7], "priority": "normal", "region": "snaefellsnes" },
    { "slug": "saxholl", "name": "Saxholl Crater", "emoji": "🌋", "lat": 64.8875, "lon": -23.9014, "days": [7], "priority": "normal", "region": "snaefellsnes" },
    { "slug": "raudfeldsgja", "name": "Raudfeldsgja Gorge", "emoji": "🪨", "lat": 64.7858, "lon": -23.5517, "days": [7], "priority": "normal", "region": "snaefellsnes" },
    { "slug": "kirkjufell", "name": "Kirkjufell & Kirkjufellfoss", "emoji": "🏔️", "lat": 64.9419, "lon": -23.3069, "days": [8], "priority": "star-top", "region": "snaefellsnes" },
    { "slug": "stykkisholmur", "name": "Stykkisholmur Harbor Town", "emoji": "🏘️", "lat": 65.0767, "lon": -22.7269, "days": [8], "priority": "normal", "region": "snaefellsnes" },
    { "slug": "berserkjahraun", "name": "Berserkjahraun Lava Field", "emoji": "🟤", "lat": 64.9861, "lon": -22.8878, "days": [8], "priority": "normal", "region": "snaefellsnes" },
    { "slug": "selvallafoss", "name": "Selvallafoss (walk-behind)", "emoji": "💧", "lat": 64.9233, "lon": -22.8117, "days": [8], "priority": "normal", "region": "snaefellsnes" },
    { "slug": "kleifarvatn", "name": "Kleifarvatn Lake", "emoji": "🏞️", "lat": 63.9294, "lon": -22.0175, "days": [9], "priority": "normal", "region": "reykjanes" },
    { "slug": "seltun", "name": "Seltun Geothermal Area", "emoji": "♨️", "lat": 63.8978, "lon": -22.0525, "days": [9], "priority": "star", "region": "reykjanes" },
    { "slug": "brimketill", "name": "Brimketill Lava Pool", "emoji": "🌊", "lat": 63.8406, "lon": -22.6111, "days": [9], "priority": "normal", "region": "reykjanes" },
    { "slug": "gunnuhver", "name": "Gunnuhver", "emoji": "♨️", "lat": 63.8194, "lon": -22.6833, "days": [9], "priority": "normal", "region": "reykjanes" },
    { "slug": "blue-lagoon", "name": "Blue Lagoon", "emoji": "♨️", "lat": 63.8804, "lon": -22.4495, "days": [9], "priority": "star", "region": "reykjanes" },
    { "slug": "fagradalsfjall", "name": "Fagradalsfjall", "emoji": "🌋", "lat": 63.9050, "lon": -22.2725, "days": [9], "priority": "star", "region": "reykjanes" },
    { "slug": "braud-og-co", "name": "Brauð & Co Bakery", "emoji": "🥐", "lat": 64.1453, "lon": -21.9269, "days": [1], "priority": "normal", "region": "reykjavik" },
    { "slug": "foss-a-sidu", "name": "Foss á Síðu", "emoji": "💧", "lat": 63.7800, "lon": -17.9722, "days": [4], "priority": "normal", "region": "south-coast" },
    { "slug": "stjornarfoss", "name": "Stjórnarfoss", "emoji": "💦", "lat": 63.7853, "lon": -18.0731, "days": [4], "priority": "normal", "region": "south-coast" },
    { "slug": "gerduberg", "name": "Gerðuberg Basalt Columns", "emoji": "🗿", "lat": 64.7667, "lon": -22.3500, "days": [7], "priority": "normal", "region": "snaefellsnes" },
    { "slug": "hellnar", "name": "Hellnar & Fjöruhúsið Café", "emoji": "🏘️", "lat": 64.7506, "lon": -23.6483, "days": [7], "priority": "star", "region": "snaefellsnes" },
    { "slug": "bjarnarfoss", "name": "Bjarnarfoss", "emoji": "💧", "lat": 64.8125, "lon": -23.4047, "days": [7], "priority": "normal", "region": "snaefellsnes" },
    { "slug": "valahnukamol", "name": "Valahnúkamöl & Reykjanesviti", "emoji": "🏔️", "lat": 63.8131, "lon": -22.7050, "days": [9], "priority": "star", "region": "reykjanes" },
    { "slug": "bridge-between-continents", "name": "Bridge Between Continents", "emoji": "🌉", "lat": 63.8683, "lon": -22.6747, "days": [9], "priority": "normal", "region": "reykjanes" }
  ]
}
